{
    "data": [
        {
            "geoid": 3041563,
            "asciiname": "Andorra la Vella",
            "latitude": 42.50779,
            "longitude": 1.52109,
            "countryname": "Andorra",
            "continent": "EU"
        },
        {
            "geoid": 292968,
            "asciiname": "Abu Dhabi",
            "latitude": 24.45118,
            "longitude": 54.39696,
            "countryname": "United Arab Emirates",
            "continent": "AS"
        },
        {
            "geoid": 1138958,
            "asciiname": "Kabul",
            "latitude": 34.52813,
            "longitude": 69.17233,
            "countryname": "Afghanistan",
            "continent": "AS"
        },
        {
            "geoid": 3576022,
            "asciiname": "Saint John's",
            "latitude": 17.12096,
            "longitude": -61.84329,
            "countryname": "Antigua and Barbuda",
            "continent": null
        },
        {
            "geoid": 3573374,
            "asciiname": "The Valley",
            "latitude": 18.21704,
            "longitude": -63.05783,
            "countryname": "Anguilla",
            "continent": null
        },
        {
            "geoid": 3183875,
            "asciiname": "Tirana",
            "latitude": 41.3275,
            "longitude": 19.81889,
            "countryname": "Albania",
            "continent": "EU"
        },
        {
            "geoid": 616052,
            "asciiname": "Yerevan",
            "latitude": 40.18111,
            "longitude": 44.51361,
            "countryname": "Armenia",
            "continent": "AS"
        },
        {
            "geoid": 2240449,
            "asciiname": "Luanda",
            "latitude": -8.83682,
            "longitude": 13.23432,
            "countryname": "Angola",
            "continent": "AF"
        },
        {
            "geoid": 3435910,
            "asciiname": "Buenos Aires",
            "latitude": -34.61315,
            "longitude": -58.37723,
            "countryname": "Argentina",
            "continent": "SA"
        },
        {
            "geoid": 5881576,
            "asciiname": "Pago Pago",
            "latitude": -14.27806,
            "longitude": -170.7025,
            "countryname": "American Samoa",
            "continent": "OC"
        },
        {
            "geoid": 2761369,
            "asciiname": "Vienna",
            "latitude": 48.20849,
            "longitude": 16.37208,
            "countryname": "Austria",
            "continent": "EU"
        },
        {
            "geoid": 2172517,
            "asciiname": "Canberra",
            "latitude": -35.28346,
            "longitude": 149.12807,
            "countryname": "Australia",
            "continent": "OC"
        },
        {
            "geoid": 3577154,
            "asciiname": "Oranjestad",
            "latitude": 12.52398,
            "longitude": -70.02703,
            "countryname": "Aruba",
            "continent": null
        },
        {
            "geoid": 3041732,
            "asciiname": "Mariehamn",
            "latitude": 60.09726,
            "longitude": 19.93481,
            "countryname": "Aland Islands",
            "continent": "EU"
        },
        {
            "geoid": 587084,
            "asciiname": "Baku",
            "latitude": 40.37767,
            "longitude": 49.89201,
            "countryname": "Azerbaijan",
            "continent": "AS"
        },
        {
            "geoid": 3191281,
            "asciiname": "Sarajevo",
            "latitude": 43.84864,
            "longitude": 18.35644,
            "countryname": "Bosnia and Herzegovina",
            "continent": "EU"
        },
        {
            "geoid": 3374036,
            "asciiname": "Bridgetown",
            "latitude": 13.10732,
            "longitude": -59.62021,
            "countryname": "Barbados",
            "continent": null
        },
        {
            "geoid": 1185241,
            "asciiname": "Dhaka",
            "latitude": 23.7104,
            "longitude": 90.40744,
            "countryname": "Bangladesh",
            "continent": "AS"
        },
        {
            "geoid": 2800866,
            "asciiname": "Brussels",
            "latitude": 50.85045,
            "longitude": 4.34878,
            "countryname": "Belgium",
            "continent": "EU"
        },
        {
            "geoid": 2357048,
            "asciiname": "Ouagadougou",
            "latitude": 12.36566,
            "longitude": -1.53388,
            "countryname": "Burkina Faso",
            "continent": "AF"
        },
        {
            "geoid": 727011,
            "asciiname": "Sofia",
            "latitude": 42.69751,
            "longitude": 23.32415,
            "countryname": "Bulgaria",
            "continent": "EU"
        },
        {
            "geoid": 290340,
            "asciiname": "Manama",
            "latitude": 26.22787,
            "longitude": 50.58565,
            "countryname": "Bahrain",
            "continent": "AS"
        },
        {
            "geoid": 426272,
            "asciiname": "Gitega",
            "latitude": -3.42708,
            "longitude": 29.92463,
            "countryname": "Burundi",
            "continent": "AF"
        },
        {
            "geoid": 2392087,
            "asciiname": "Porto-Novo",
            "latitude": 6.49646,
            "longitude": 2.60359,
            "countryname": "Benin",
            "continent": "AF"
        },
        {
            "geoid": 3579132,
            "asciiname": "Gustavia",
            "latitude": 17.89618,
            "longitude": -62.84978,
            "countryname": "Saint Barthelemy",
            "continent": null
        },
        {
            "geoid": 3573197,
            "asciiname": "Hamilton",
            "latitude": 32.2949,
            "longitude": -64.78303,
            "countryname": "Bermuda",
            "continent": null
        },
        {
            "geoid": 1820906,
            "asciiname": "Bandar Seri Begawan",
            "latitude": 4.89035,
            "longitude": 114.94006,
            "countryname": "Brunei",
            "continent": "AS"
        },
        {
            "geoid": 3903987,
            "asciiname": "Sucre",
            "latitude": -19.03332,
            "longitude": -65.26274,
            "countryname": "Bolivia",
            "continent": "SA"
        },
        {
            "geoid": 3513563,
            "asciiname": "Kralendijk",
            "latitude": 12.15,
            "longitude": -68.26667,
            "countryname": "Bonaire, Saint Eustatius and Saba ",
            "continent": null
        },
        {
            "geoid": 3469058,
            "asciiname": "Brasilia",
            "latitude": -15.77972,
            "longitude": -47.92972,
            "countryname": "Brazil",
            "continent": "SA"
        },
        {
            "geoid": 3571824,
            "asciiname": "Nassau",
            "latitude": 25.05823,
            "longitude": -77.34306,
            "countryname": "Bahamas",
            "continent": null
        },
        {
            "geoid": 1252416,
            "asciiname": "Thimphu",
            "latitude": 27.46609,
            "longitude": 89.64191,
            "countryname": "Bhutan",
            "continent": "AS"
        },
        {
            "geoid": 933773,
            "asciiname": "Gaborone",
            "latitude": -24.65451,
            "longitude": 25.90859,
            "countryname": "Botswana",
            "continent": "AF"
        },
        {
            "geoid": 625144,
            "asciiname": "Minsk",
            "latitude": 53.9,
            "longitude": 27.56667,
            "countryname": "Belarus",
            "continent": "EU"
        },
        {
            "geoid": 3582672,
            "asciiname": "Belmopan",
            "latitude": 17.25,
            "longitude": -88.76667,
            "countryname": "Belize",
            "continent": null
        },
        {
            "geoid": 6094817,
            "asciiname": "Ottawa",
            "latitude": 45.41117,
            "longitude": -75.69812,
            "countryname": "Canada",
            "continent": null
        },
        {
            "geoid": 7304591,
            "asciiname": "West Island",
            "latitude": -12.15681,
            "longitude": 96.82251,
            "countryname": "Cocos Islands",
            "continent": "AS"
        },
        {
            "geoid": 2314302,
            "asciiname": "Kinshasa",
            "latitude": -4.32758,
            "longitude": 15.31357,
            "countryname": "Democratic Republic of the Congo",
            "continent": "AF"
        },
        {
            "geoid": 2389853,
            "asciiname": "Bangui",
            "latitude": 4.36122,
            "longitude": 18.55496,
            "countryname": "Central African Republic",
            "continent": "AF"
        },
        {
            "geoid": 2260535,
            "asciiname": "Brazzaville",
            "latitude": -4.26613,
            "longitude": 15.28318,
            "countryname": "Republic of the Congo",
            "continent": "AF"
        },
        {
            "geoid": 2661552,
            "asciiname": "Bern",
            "latitude": 46.94809,
            "longitude": 7.44744,
            "countryname": "Switzerland",
            "continent": "EU"
        },
        {
            "geoid": 2279755,
            "asciiname": "Yamoussoukro",
            "latitude": 6.82055,
            "longitude": -5.27674,
            "countryname": "Ivory Coast",
            "continent": "AF"
        },
        {
            "geoid": 4035715,
            "asciiname": "Avarua",
            "latitude": -21.2075,
            "longitude": -159.77545,
            "countryname": "Cook Islands",
            "continent": "OC"
        },
        {
            "geoid": 3871336,
            "asciiname": "Santiago",
            "latitude": -33.45694,
            "longitude": -70.64827,
            "countryname": "Chile",
            "continent": "SA"
        },
        {
            "geoid": 2220957,
            "asciiname": "Yaounde",
            "latitude": 3.86667,
            "longitude": 11.51667,
            "countryname": "Cameroon",
            "continent": "AF"
        },
        {
            "geoid": 1816670,
            "asciiname": "Beijing",
            "latitude": 39.9075,
            "longitude": 116.39723,
            "countryname": "China",
            "continent": "AS"
        },
        {
            "geoid": 3688689,
            "asciiname": "Bogota",
            "latitude": 4.60971,
            "longitude": -74.08175,
            "countryname": "Colombia",
            "continent": "SA"
        },
        {
            "geoid": 3621849,
            "asciiname": "San Jose",
            "latitude": 9.93333,
            "longitude": -84.08333,
            "countryname": "Costa Rica",
            "continent": null
        },
        {
            "geoid": 3553478,
            "asciiname": "Havana",
            "latitude": 23.13302,
            "longitude": -82.38304,
            "countryname": "Cuba",
            "continent": null
        },
        {
            "geoid": 3374333,
            "asciiname": "Praia",
            "latitude": 14.93152,
            "longitude": -23.51254,
            "countryname": "Cabo Verde",
            "continent": "AF"
        },
        {
            "geoid": 3513090,
            "asciiname": "Willemstad",
            "latitude": 12.1084,
            "longitude": -68.93354,
            "countryname": "Curacao",
            "continent": null
        },
        {
            "geoid": 2078127,
            "asciiname": "Flying Fish Cove",
            "latitude": -10.42172,
            "longitude": 105.67912,
            "countryname": "Christmas Island",
            "continent": "OC"
        },
        {
            "geoid": 146268,
            "asciiname": "Nicosia",
            "latitude": 35.17531,
            "longitude": 33.3642,
            "countryname": "Cyprus",
            "continent": "EU"
        },
        {
            "geoid": 3067696,
            "asciiname": "Prague",
            "latitude": 50.08804,
            "longitude": 14.42076,
            "countryname": "Czechia",
            "continent": "EU"
        },
        {
            "geoid": 2950159,
            "asciiname": "Berlin",
            "latitude": 52.52437,
            "longitude": 13.41053,
            "countryname": "Germany",
            "continent": "EU"
        },
        {
            "geoid": 223817,
            "asciiname": "Djibouti",
            "latitude": 11.58901,
            "longitude": 43.14503,
            "countryname": "Djibouti",
            "continent": "AF"
        },
        {
            "geoid": 2618425,
            "asciiname": "Copenhagen",
            "latitude": 55.67594,
            "longitude": 12.56553,
            "countryname": "Denmark",
            "continent": "EU"
        },
        {
            "geoid": 3575635,
            "asciiname": "Roseau",
            "latitude": 15.30174,
            "longitude": -61.38808,
            "countryname": "Dominica",
            "continent": null
        },
        {
            "geoid": 3492908,
            "asciiname": "Santo Domingo",
            "latitude": 18.47186,
            "longitude": -69.89232,
            "countryname": "Dominican Republic",
            "continent": null
        },
        {
            "geoid": 2507480,
            "asciiname": "Algiers",
            "latitude": 36.73225,
            "longitude": 3.08746,
            "countryname": "Algeria",
            "continent": "AF"
        },
        {
            "geoid": 3652462,
            "asciiname": "Quito",
            "latitude": -0.22985,
            "longitude": -78.52495,
            "countryname": "Ecuador",
            "continent": "SA"
        },
        {
            "geoid": 588409,
            "asciiname": "Tallinn",
            "latitude": 59.43696,
            "longitude": 24.75353,
            "countryname": "Estonia",
            "continent": "EU"
        },
        {
            "geoid": 360630,
            "asciiname": "Cairo",
            "latitude": 30.06263,
            "longitude": 31.24967,
            "countryname": "Egypt",
            "continent": "AF"
        },
        {
            "geoid": 343300,
            "asciiname": "Asmara",
            "latitude": 15.33805,
            "longitude": 38.93184,
            "countryname": "Eritrea",
            "continent": "AF"
        },
        {
            "geoid": 3117735,
            "asciiname": "Madrid",
            "latitude": 40.4165,
            "longitude": -3.70256,
            "countryname": "Spain",
            "continent": "EU"
        },
        {
            "geoid": 344979,
            "asciiname": "Addis Ababa",
            "latitude": 9.02497,
            "longitude": 38.74689,
            "countryname": "Ethiopia",
            "continent": "AF"
        },
        {
            "geoid": 658225,
            "asciiname": "Helsinki",
            "latitude": 60.16952,
            "longitude": 24.93545,
            "countryname": "Finland",
            "continent": "EU"
        },
        {
            "geoid": 2198148,
            "asciiname": "Suva",
            "latitude": -18.14161,
            "longitude": 178.44149,
            "countryname": "Fiji",
            "continent": "OC"
        },
        {
            "geoid": 3426691,
            "asciiname": "Stanley",
            "latitude": -51.69382,
            "longitude": -57.85701,
            "countryname": "Falkland Islands",
            "continent": "SA"
        },
        {
            "geoid": 2081986,
            "asciiname": "Palikir - National Government Center",
            "latitude": 6.92477,
            "longitude": 158.16109,
            "countryname": "Micronesia",
            "continent": "OC"
        },
        {
            "geoid": 2611396,
            "asciiname": "Torshavn",
            "latitude": 62.00973,
            "longitude": -6.77164,
            "countryname": "Faroe Islands",
            "continent": "EU"
        },
        {
            "geoid": 2988507,
            "asciiname": "Paris",
            "latitude": 48.85341,
            "longitude": 2.3488,
            "countryname": "France",
            "continent": "EU"
        },
        {
            "geoid": 2399697,
            "asciiname": "Libreville",
            "latitude": 0.39241,
            "longitude": 9.45356,
            "countryname": "Gabon",
            "continent": "AF"
        },
        {
            "geoid": 2643743,
            "asciiname": "London",
            "latitude": 51.50853,
            "longitude": -0.12574,
            "countryname": "United Kingdom",
            "continent": "EU"
        },
        {
            "geoid": 3579925,
            "asciiname": "Saint George's",
            "latitude": 12.05288,
            "longitude": -61.75226,
            "countryname": "Grenada",
            "continent": null
        },
        {
            "geoid": 611717,
            "asciiname": "Tbilisi",
            "latitude": 41.69411,
            "longitude": 44.83368,
            "countryname": "Georgia",
            "continent": "AS"
        },
        {
            "geoid": 3382160,
            "asciiname": "Cayenne",
            "latitude": 4.93333,
            "longitude": -52.33333,
            "countryname": "French Guiana",
            "continent": "SA"
        },
        {
            "geoid": 3042287,
            "asciiname": "Saint Peter Port",
            "latitude": 49.45981,
            "longitude": -2.53527,
            "countryname": "Guernsey",
            "continent": "EU"
        },
        {
            "geoid": 2306104,
            "asciiname": "Accra",
            "latitude": 5.55602,
            "longitude": -0.1969,
            "countryname": "Ghana",
            "continent": "AF"
        },
        {
            "geoid": 2411585,
            "asciiname": "Gibraltar",
            "latitude": 36.14474,
            "longitude": -5.35257,
            "countryname": "Gibraltar",
            "continent": "EU"
        },
        {
            "geoid": 3421319,
            "asciiname": "Nuuk",
            "latitude": 64.18347,
            "longitude": -51.72157,
            "countryname": "Greenland",
            "continent": null
        },
        {
            "geoid": 2413876,
            "asciiname": "Banjul",
            "latitude": 13.45274,
            "longitude": -16.57803,
            "countryname": "Gambia",
            "continent": "AF"
        },
        {
            "geoid": 2422465,
            "asciiname": "Conakry",
            "latitude": 9.53795,
            "longitude": -13.67729,
            "countryname": "Guinea",
            "continent": "AF"
        },
        {
            "geoid": 3579732,
            "asciiname": "Basse-Terre",
            "latitude": 15.99714,
            "longitude": -61.73214,
            "countryname": "Guadeloupe",
            "continent": null
        },
        {
            "geoid": 2309527,
            "asciiname": "Malabo",
            "latitude": 3.75578,
            "longitude": 8.78166,
            "countryname": "Equatorial Guinea",
            "continent": "AF"
        },
        {
            "geoid": 264371,
            "asciiname": "Athens",
            "latitude": 37.98376,
            "longitude": 23.72784,
            "countryname": "Greece",
            "continent": "EU"
        },
        {
            "geoid": 3426466,
            "asciiname": "Grytviken",
            "latitude": -54.28111,
            "longitude": -36.5092,
            "countryname": "South Georgia and the South Sandwich Islands",
            "continent": "AN"
        },
        {
            "geoid": 3598132,
            "asciiname": "Guatemala City",
            "latitude": 14.64072,
            "longitude": -90.51327,
            "countryname": "Guatemala",
            "continent": null
        },
        {
            "geoid": 4044012,
            "asciiname": "Hagatna",
            "latitude": 13.47567,
            "longitude": 144.74886,
            "countryname": "Guam",
            "continent": "OC"
        },
        {
            "geoid": 2374775,
            "asciiname": "Bissau",
            "latitude": 11.86357,
            "longitude": -15.59767,
            "countryname": "Guinea-Bissau",
            "continent": "AF"
        },
        {
            "geoid": 3378644,
            "asciiname": "Georgetown",
            "latitude": 6.80448,
            "longitude": -58.15527,
            "countryname": "Guyana",
            "continent": "SA"
        },
        {
            "geoid": 1819729,
            "asciiname": "Hong Kong",
            "latitude": 22.27832,
            "longitude": 114.17469,
            "countryname": "Hong Kong",
            "continent": "AS"
        },
        {
            "geoid": 3600949,
            "asciiname": "Tegucigalpa",
            "latitude": 14.0818,
            "longitude": -87.20681,
            "countryname": "Honduras",
            "continent": null
        },
        {
            "geoid": 3186886,
            "asciiname": "Zagreb",
            "latitude": 45.81444,
            "longitude": 15.97798,
            "countryname": "Croatia",
            "continent": "EU"
        },
        {
            "geoid": 3718426,
            "asciiname": "Port-au-Prince",
            "latitude": 18.54349,
            "longitude": -72.33881,
            "countryname": "Haiti",
            "continent": null
        },
        {
            "geoid": 3054643,
            "asciiname": "Budapest",
            "latitude": 47.49835,
            "longitude": 19.04045,
            "countryname": "Hungary",
            "continent": "EU"
        },
        {
            "geoid": 1642911,
            "asciiname": "Jakarta",
            "latitude": -6.21462,
            "longitude": 106.84513,
            "countryname": "Indonesia",
            "continent": "AS"
        },
        {
            "geoid": 2964574,
            "asciiname": "Dublin",
            "latitude": 53.33306,
            "longitude": -6.24889,
            "countryname": "Ireland",
            "continent": "EU"
        },
        {
            "geoid": 3042237,
            "asciiname": "Douglas",
            "latitude": 54.15,
            "longitude": -4.48333,
            "countryname": "Isle of Man",
            "continent": "EU"
        },
        {
            "geoid": 1261481,
            "asciiname": "New Delhi",
            "latitude": 28.63576,
            "longitude": 77.22445,
            "countryname": "India",
            "continent": "AS"
        },
        {
            "geoid": 98182,
            "asciiname": "Baghdad",
            "latitude": 33.34058,
            "longitude": 44.40088,
            "countryname": "Iraq",
            "continent": "AS"
        },
        {
            "geoid": 112931,
            "asciiname": "Tehran",
            "latitude": 35.69439,
            "longitude": 51.42151,
            "countryname": "Iran",
            "continent": "AS"
        },
        {
            "geoid": 3413829,
            "asciiname": "Reykjavik",
            "latitude": 64.13548,
            "longitude": -21.89541,
            "countryname": "Iceland",
            "continent": "EU"
        },
        {
            "geoid": 3169070,
            "asciiname": "Rome",
            "latitude": 41.89193,
            "longitude": 12.51133,
            "countryname": "Italy",
            "continent": "EU"
        },
        {
            "geoid": 3042091,
            "asciiname": "Saint Helier",
            "latitude": 49.18804,
            "longitude": -2.10491,
            "countryname": "Jersey",
            "continent": "EU"
        },
        {
            "geoid": 3489854,
            "asciiname": "Kingston",
            "latitude": 17.99702,
            "longitude": -76.79358,
            "countryname": "Jamaica",
            "continent": null
        },
        {
            "geoid": 250441,
            "asciiname": "Amman",
            "latitude": 31.95522,
            "longitude": 35.94503,
            "countryname": "Jordan",
            "continent": "AS"
        },
        {
            "geoid": 1850147,
            "asciiname": "Tokyo",
            "latitude": 35.6895,
            "longitude": 139.69171,
            "countryname": "Japan",
            "continent": "AS"
        },
        {
            "geoid": 184745,
            "asciiname": "Nairobi",
            "latitude": -1.28333,
            "longitude": 36.81667,
            "countryname": "Kenya",
            "continent": "AF"
        },
        {
            "geoid": 1528675,
            "asciiname": "Bishkek",
            "latitude": 42.87,
            "longitude": 74.59,
            "countryname": "Kyrgyzstan",
            "continent": "AS"
        },
        {
            "geoid": 1821306,
            "asciiname": "Phnom Penh",
            "latitude": 11.56245,
            "longitude": 104.91601,
            "countryname": "Cambodia",
            "continent": "AS"
        },
        {
            "geoid": 2110257,
            "asciiname": "Tarawa",
            "latitude": 1.3278,
            "longitude": 172.97696,
            "countryname": "Kiribati",
            "continent": "OC"
        },
        {
            "geoid": 921772,
            "asciiname": "Moroni",
            "latitude": -11.70216,
            "longitude": 43.25506,
            "countryname": "Comoros",
            "continent": "AF"
        },
        {
            "geoid": 3575551,
            "asciiname": "Basseterre",
            "latitude": 17.2955,
            "longitude": -62.72499,
            "countryname": "Saint Kitts and Nevis",
            "continent": null
        },
        {
            "geoid": 1871859,
            "asciiname": "Pyongyang",
            "latitude": 39.03385,
            "longitude": 125.75432,
            "countryname": "North Korea",
            "continent": "AS"
        },
        {
            "geoid": 1835848,
            "asciiname": "Seoul",
            "latitude": 37.566,
            "longitude": 126.9784,
            "countryname": "South Korea",
            "continent": "AS"
        },
        {
            "geoid": 285787,
            "asciiname": "Kuwait City",
            "latitude": 29.36972,
            "longitude": 47.97833,
            "countryname": "Kuwait",
            "continent": "AS"
        },
        {
            "geoid": 3580661,
            "asciiname": "George Town",
            "latitude": 19.2866,
            "longitude": -81.37436,
            "countryname": "Cayman Islands",
            "continent": null
        },
        {
            "geoid": 1526273,
            "asciiname": "Nur-Sultan",
            "latitude": 51.1801,
            "longitude": 71.44598,
            "countryname": "Kazakhstan",
            "continent": "AS"
        },
        {
            "geoid": 1651944,
            "asciiname": "Vientiane",
            "latitude": 17.96667,
            "longitude": 102.6,
            "countryname": "Laos",
            "continent": "AS"
        },
        {
            "geoid": 276781,
            "asciiname": "Beirut",
            "latitude": 33.89332,
            "longitude": 35.50157,
            "countryname": "Lebanon",
            "continent": "AS"
        },
        {
            "geoid": 3576812,
            "asciiname": "Castries",
            "latitude": 13.9957,
            "longitude": -61.00614,
            "countryname": "Saint Lucia",
            "continent": null
        },
        {
            "geoid": 3042030,
            "asciiname": "Vaduz",
            "latitude": 47.14151,
            "longitude": 9.52154,
            "countryname": "Liechtenstein",
            "continent": "EU"
        },
        {
            "geoid": 1248991,
            "asciiname": "Colombo",
            "latitude": 6.93548,
            "longitude": 79.84868,
            "countryname": "Sri Lanka",
            "continent": "AS"
        },
        {
            "geoid": 2274895,
            "asciiname": "Monrovia",
            "latitude": 6.30054,
            "longitude": -10.7969,
            "countryname": "Liberia",
            "continent": "AF"
        },
        {
            "geoid": 932505,
            "asciiname": "Maseru",
            "latitude": -29.31667,
            "longitude": 27.48333,
            "countryname": "Lesotho",
            "continent": "AF"
        },
        {
            "geoid": 593116,
            "asciiname": "Vilnius",
            "latitude": 54.68916,
            "longitude": 25.2798,
            "countryname": "Lithuania",
            "continent": "EU"
        },
        {
            "geoid": 2960316,
            "asciiname": "Luxembourg",
            "latitude": 49.61167,
            "longitude": 6.13,
            "countryname": "Luxembourg",
            "continent": "EU"
        },
        {
            "geoid": 456172,
            "asciiname": "Riga",
            "latitude": 56.946,
            "longitude": 24.10589,
            "countryname": "Latvia",
            "continent": "EU"
        },
        {
            "geoid": 2210247,
            "asciiname": "Tripoli",
            "latitude": 32.88743,
            "longitude": 13.18733,
            "countryname": "Libya",
            "continent": "AF"
        },
        {
            "geoid": 2538475,
            "asciiname": "Rabat",
            "latitude": 34.01325,
            "longitude": -6.83255,
            "countryname": "Morocco",
            "continent": "AF"
        },
        {
            "geoid": 2993458,
            "asciiname": "Monaco",
            "latitude": 43.73333,
            "longitude": 7.41667,
            "countryname": "Monaco",
            "continent": "EU"
        },
        {
            "geoid": 618426,
            "asciiname": "Chisinau",
            "latitude": 47.00556,
            "longitude": 28.8575,
            "countryname": "Moldova",
            "continent": "EU"
        },
        {
            "geoid": 3193044,
            "asciiname": "Podgorica",
            "latitude": 42.44111,
            "longitude": 19.26361,
            "countryname": "Montenegro",
            "continent": "EU"
        },
        {
            "geoid": 3578851,
            "asciiname": "Marigot",
            "latitude": 18.06819,
            "longitude": -63.08302,
            "countryname": "Saint Martin",
            "continent": null
        },
        {
            "geoid": 1070940,
            "asciiname": "Antananarivo",
            "latitude": -18.91368,
            "longitude": 47.53613,
            "countryname": "Madagascar",
            "continent": "AF"
        },
        {
            "geoid": 2113779,
            "asciiname": "Majuro",
            "latitude": 7.08971,
            "longitude": 171.38027,
            "countryname": "Marshall Islands",
            "continent": "OC"
        },
        {
            "geoid": 785842,
            "asciiname": "Skopje",
            "latitude": 41.99646,
            "longitude": 21.43141,
            "countryname": "North Macedonia",
            "continent": "EU"
        },
        {
            "geoid": 2460596,
            "asciiname": "Bamako",
            "latitude": 12.65,
            "longitude": -8.0,
            "countryname": "Mali",
            "continent": "AF"
        },
        {
            "geoid": 6611854,
            "asciiname": "Nay Pyi Taw",
            "latitude": 19.745,
            "longitude": 96.12972,
            "countryname": "Myanmar",
            "continent": "AS"
        },
        {
            "geoid": 2028462,
            "asciiname": "Ulan Bator",
            "latitude": 47.90771,
            "longitude": 106.88324,
            "countryname": "Mongolia",
            "continent": "AS"
        },
        {
            "geoid": 1821274,
            "asciiname": "Macau",
            "latitude": 22.20056,
            "longitude": 113.54611,
            "countryname": "Macao",
            "continent": "AS"
        },
        {
            "geoid": 7828758,
            "asciiname": "Saipan",
            "latitude": 15.21233,
            "longitude": 145.7545,
            "countryname": "Northern Mariana Islands",
            "continent": "OC"
        },
        {
            "geoid": 3570675,
            "asciiname": "Fort-de-France",
            "latitude": 14.60365,
            "longitude": -61.07418,
            "countryname": "Martinique",
            "continent": null
        },
        {
            "geoid": 2377450,
            "asciiname": "Nouakchott",
            "latitude": 18.08581,
            "longitude": -15.9785,
            "countryname": "Mauritania",
            "continent": "AF"
        },
        {
            "geoid": 3578069,
            "asciiname": "Plymouth",
            "latitude": 16.70555,
            "longitude": -62.21292,
            "countryname": "Montserrat",
            "continent": null
        },
        {
            "geoid": 2562305,
            "asciiname": "Valletta",
            "latitude": 35.89968,
            "longitude": 14.5148,
            "countryname": "Malta",
            "continent": "EU"
        },
        {
            "geoid": 934154,
            "asciiname": "Port Louis",
            "latitude": -20.16194,
            "longitude": 57.49889,
            "countryname": "Mauritius",
            "continent": "AF"
        },
        {
            "geoid": 1282027,
            "asciiname": "Male",
            "latitude": 4.17521,
            "longitude": 73.50916,
            "countryname": "Maldives",
            "continent": "AS"
        },
        {
            "geoid": 927967,
            "asciiname": "Lilongwe",
            "latitude": -13.96692,
            "longitude": 33.78725,
            "countryname": "Malawi",
            "continent": "AF"
        },
        {
            "geoid": 3530597,
            "asciiname": "Mexico City",
            "latitude": 19.42847,
            "longitude": -99.12766,
            "countryname": "Mexico",
            "continent": null
        },
        {
            "geoid": 1735161,
            "asciiname": "Kuala Lumpur",
            "latitude": 3.1412,
            "longitude": 101.68653,
            "countryname": "Malaysia",
            "continent": "AS"
        },
        {
            "geoid": 1040652,
            "asciiname": "Maputo",
            "latitude": -25.96553,
            "longitude": 32.58322,
            "countryname": "Mozambique",
            "continent": "AF"
        },
        {
            "geoid": 2139521,
            "asciiname": "Noumea",
            "latitude": -22.27407,
            "longitude": 166.44884,
            "countryname": "New Caledonia",
            "continent": "OC"
        },
        {
            "geoid": 2440485,
            "asciiname": "Niamey",
            "latitude": 13.51366,
            "longitude": 2.1098,
            "countryname": "Niger",
            "continent": "AF"
        },
        {
            "geoid": 2161314,
            "asciiname": "Kingston",
            "latitude": -29.05459,
            "longitude": 167.96628,
            "countryname": "Norfolk Island",
            "continent": "OC"
        },
        {
            "geoid": 2352778,
            "asciiname": "Abuja",
            "latitude": 9.05785,
            "longitude": 7.49508,
            "countryname": "Nigeria",
            "continent": "AF"
        },
        {
            "geoid": 3617763,
            "asciiname": "Managua",
            "latitude": 12.13282,
            "longitude": -86.2504,
            "countryname": "Nicaragua",
            "continent": null
        },
        {
            "geoid": 2759794,
            "asciiname": "Amsterdam",
            "latitude": 52.37403,
            "longitude": 4.88969,
            "countryname": "The Netherlands",
            "continent": "EU"
        },
        {
            "geoid": 3143244,
            "asciiname": "Oslo",
            "latitude": 59.91273,
            "longitude": 10.74609,
            "countryname": "Norway",
            "continent": "EU"
        },
        {
            "geoid": 1283240,
            "asciiname": "Kathmandu",
            "latitude": 27.70169,
            "longitude": 85.3206,
            "countryname": "Nepal",
            "continent": "AS"
        },
        {
            "geoid": 7626461,
            "asciiname": "Yaren",
            "latitude": -0.55085,
            "longitude": 166.9252,
            "countryname": "Nauru",
            "continent": "OC"
        },
        {
            "geoid": 4036284,
            "asciiname": "Alofi",
            "latitude": -19.05451,
            "longitude": -169.91768,
            "countryname": "Niue",
            "continent": "OC"
        },
        {
            "geoid": 2179537,
            "asciiname": "Wellington",
            "latitude": -41.28664,
            "longitude": 174.77557,
            "countryname": "New Zealand",
            "continent": "OC"
        },
        {
            "geoid": 287286,
            "asciiname": "Muscat",
            "latitude": 23.58413,
            "longitude": 58.40778,
            "countryname": "Oman",
            "continent": "AS"
        },
        {
            "geoid": 3703443,
            "asciiname": "Panama",
            "latitude": 8.9936,
            "longitude": -79.51973,
            "countryname": "Panama",
            "continent": null
        },
        {
            "geoid": 3936456,
            "asciiname": "Lima",
            "latitude": -12.04318,
            "longitude": -77.02824,
            "countryname": "Peru",
            "continent": "SA"
        },
        {
            "geoid": 4033936,
            "asciiname": "Papeete",
            "latitude": -17.53733,
            "longitude": -149.5665,
            "countryname": "French Polynesia",
            "continent": "OC"
        },
        {
            "geoid": 2088122,
            "asciiname": "Port Moresby",
            "latitude": -9.47723,
            "longitude": 147.15089,
            "countryname": "Papua New Guinea",
            "continent": "OC"
        },
        {
            "geoid": 1701668,
            "asciiname": "Manila",
            "latitude": 14.6042,
            "longitude": 120.9822,
            "countryname": "Philippines",
            "continent": "AS"
        },
        {
            "geoid": 1176615,
            "asciiname": "Islamabad",
            "latitude": 33.72148,
            "longitude": 73.04329,
            "countryname": "Pakistan",
            "continent": "AS"
        },
        {
            "geoid": 756135,
            "asciiname": "Warsaw",
            "latitude": 52.22977,
            "longitude": 21.01178,
            "countryname": "Poland",
            "continent": "EU"
        },
        {
            "geoid": 3424934,
            "asciiname": "Saint-Pierre",
            "latitude": 46.77914,
            "longitude": -56.1773,
            "countryname": "Saint Pierre and Miquelon",
            "continent": null
        },
        {
            "geoid": 4030723,
            "asciiname": "Adamstown",
            "latitude": -25.06597,
            "longitude": -130.10147,
            "countryname": "Pitcairn",
            "continent": "OC"
        },
        {
            "geoid": 4568127,
            "asciiname": "San Juan",
            "latitude": 18.46633,
            "longitude": -66.10572,
            "countryname": "Puerto Rico",
            "continent": null
        },
        {
            "geoid": 2267057,
            "asciiname": "Lisbon",
            "latitude": 38.71667,
            "longitude": -9.13333,
            "countryname": "Portugal",
            "continent": "EU"
        },
        {
            "geoid": 8063361,
            "asciiname": "Ngerulmud",
            "latitude": 7.50077,
            "longitude": 134.6238,
            "countryname": "Palau",
            "continent": "OC"
        },
        {
            "geoid": 3439389,
            "asciiname": "Asuncion",
            "latitude": -25.28646,
            "longitude": -57.647,
            "countryname": "Paraguay",
            "continent": "SA"
        },
        {
            "geoid": 290030,
            "asciiname": "Doha",
            "latitude": 25.28545,
            "longitude": 51.53096,
            "countryname": "Qatar",
            "continent": "AS"
        },
        {
            "geoid": 935264,
            "asciiname": "Saint-Denis",
            "latitude": -20.88231,
            "longitude": 55.4504,
            "countryname": "Reunion",
            "continent": "AF"
        },
        {
            "geoid": 683506,
            "asciiname": "Bucharest",
            "latitude": 44.43225,
            "longitude": 26.10626,
            "countryname": "Romania",
            "continent": "EU"
        },
        {
            "geoid": 792680,
            "asciiname": "Belgrade",
            "latitude": 44.80401,
            "longitude": 20.46513,
            "countryname": "Serbia",
            "continent": "EU"
        },
        {
            "geoid": 524901,
            "asciiname": "Moscow",
            "latitude": 55.75222,
            "longitude": 37.61556,
            "countryname": "Russia",
            "continent": "EU"
        },
        {
            "geoid": 202061,
            "asciiname": "Kigali",
            "latitude": -1.94995,
            "longitude": 30.05885,
            "countryname": "Rwanda",
            "continent": "AF"
        },
        {
            "geoid": 108410,
            "asciiname": "Riyadh",
            "latitude": 24.68773,
            "longitude": 46.72185,
            "countryname": "Saudi Arabia",
            "continent": "AS"
        },
        {
            "geoid": 2108502,
            "asciiname": "Honiara",
            "latitude": -9.43333,
            "longitude": 159.95,
            "countryname": "Solomon Islands",
            "continent": "OC"
        },
        {
            "geoid": 241131,
            "asciiname": "Victoria",
            "latitude": -4.62001,
            "longitude": 55.45501,
            "countryname": "Seychelles",
            "continent": "AF"
        },
        {
            "geoid": 379252,
            "asciiname": "Khartoum",
            "latitude": 15.55177,
            "longitude": 32.53241,
            "countryname": "Sudan",
            "continent": "AF"
        },
        {
            "geoid": 2673730,
            "asciiname": "Stockholm",
            "latitude": 59.32938,
            "longitude": 18.06871,
            "countryname": "Sweden",
            "continent": "EU"
        },
        {
            "geoid": 1880252,
            "asciiname": "Singapore",
            "latitude": 1.28967,
            "longitude": 103.85007,
            "countryname": "Singapore",
            "continent": "AS"
        },
        {
            "geoid": 3370903,
            "asciiname": "Jamestown",
            "latitude": -15.93872,
            "longitude": -5.71675,
            "countryname": "Saint Helena",
            "continent": "AF"
        },
        {
            "geoid": 3196359,
            "asciiname": "Ljubljana",
            "latitude": 46.05108,
            "longitude": 14.50513,
            "countryname": "Slovenia",
            "continent": "EU"
        },
        {
            "geoid": 2729907,
            "asciiname": "Longyearbyen",
            "latitude": 78.22334,
            "longitude": 15.64689,
            "countryname": "Svalbard and Jan Mayen",
            "continent": "EU"
        },
        {
            "geoid": 3060972,
            "asciiname": "Bratislava",
            "latitude": 48.14816,
            "longitude": 17.10674,
            "countryname": "Slovakia",
            "continent": "EU"
        },
        {
            "geoid": 2409306,
            "asciiname": "Freetown",
            "latitude": 8.48714,
            "longitude": -13.2356,
            "countryname": "Sierra Leone",
            "continent": "AF"
        },
        {
            "geoid": 3168070,
            "asciiname": "San Marino",
            "latitude": 43.93667,
            "longitude": 12.44639,
            "countryname": "San Marino",
            "continent": "EU"
        },
        {
            "geoid": 2253354,
            "asciiname": "Dakar",
            "latitude": 14.6937,
            "longitude": -17.44406,
            "countryname": "Senegal",
            "continent": "AF"
        },
        {
            "geoid": 53654,
            "asciiname": "Mogadishu",
            "latitude": 2.03711,
            "longitude": 45.34375,
            "countryname": "Somalia",
            "continent": "AF"
        },
        {
            "geoid": 3383330,
            "asciiname": "Paramaribo",
            "latitude": 5.86638,
            "longitude": -55.16682,
            "countryname": "Suriname",
            "continent": "SA"
        },
        {
            "geoid": 373303,
            "asciiname": "Juba",
            "latitude": 4.85165,
            "longitude": 31.58247,
            "countryname": "South Sudan",
            "continent": "AF"
        },
        {
            "geoid": 2410763,
            "asciiname": "Sao Tome",
            "latitude": 0.33654,
            "longitude": 6.72732,
            "countryname": "Sao Tome and Principe",
            "continent": "AF"
        },
        {
            "geoid": 3583361,
            "asciiname": "San Salvador",
            "latitude": 13.68935,
            "longitude": -89.18718,
            "countryname": "El Salvador",
            "continent": null
        },
        {
            "geoid": 3513392,
            "asciiname": "Philipsburg",
            "latitude": 18.026,
            "longitude": -63.04582,
            "countryname": "Sint Maarten",
            "continent": null
        },
        {
            "geoid": 170654,
            "asciiname": "Damascus",
            "latitude": 33.5102,
            "longitude": 36.29128,
            "countryname": "Syria",
            "continent": "AS"
        },
        {
            "geoid": 934985,
            "asciiname": "Mbabane",
            "latitude": -26.31667,
            "longitude": 31.13333,
            "countryname": "Eswatini",
            "continent": "AF"
        },
        {
            "geoid": 3576994,
            "asciiname": "Cockburn Town",
            "latitude": 21.46122,
            "longitude": -71.14188,
            "countryname": "Turks and Caicos Islands",
            "continent": null
        },
        {
            "geoid": 2427123,
            "asciiname": "N'Djamena",
            "latitude": 12.10672,
            "longitude": 15.0444,
            "countryname": "Chad",
            "continent": "AF"
        },
        {
            "geoid": 1546102,
            "asciiname": "Port-aux-Francais",
            "latitude": -49.34916,
            "longitude": 70.21937,
            "countryname": "French Southern Territories",
            "continent": "AN"
        },
        {
            "geoid": 2365267,
            "asciiname": "Lome",
            "latitude": 6.12874,
            "longitude": 1.22154,
            "countryname": "Togo",
            "continent": "AF"
        },
        {
            "geoid": 1609350,
            "asciiname": "Bangkok",
            "latitude": 13.75398,
            "longitude": 100.50144,
            "countryname": "Thailand",
            "continent": "AS"
        },
        {
            "geoid": 1221874,
            "asciiname": "Dushanbe",
            "latitude": 38.53575,
            "longitude": 68.77905,
            "countryname": "Tajikistan",
            "continent": "AS"
        },
        {
            "geoid": 1645457,
            "asciiname": "Dili",
            "latitude": -8.55861,
            "longitude": 125.57361,
            "countryname": "Timor Leste",
            "continent": "OC"
        },
        {
            "geoid": 162183,
            "asciiname": "Ashgabat",
            "latitude": 37.95,
            "longitude": 58.38333,
            "countryname": "Turkmenistan",
            "continent": "AS"
        },
        {
            "geoid": 2464470,
            "asciiname": "Tunis",
            "latitude": 36.81897,
            "longitude": 10.16579,
            "countryname": "Tunisia",
            "continent": "AF"
        },
        {
            "geoid": 4032402,
            "asciiname": "Nuku'alofa",
            "latitude": -21.13938,
            "longitude": -175.2018,
            "countryname": "Tonga",
            "continent": "OC"
        },
        {
            "geoid": 323786,
            "asciiname": "Ankara",
            "latitude": 39.91987,
            "longitude": 32.85427,
            "countryname": "Turkey",
            "continent": "AS"
        },
        {
            "geoid": 3573890,
            "asciiname": "Port of Spain",
            "latitude": 10.66668,
            "longitude": -61.51889,
            "countryname": "Trinidad and Tobago",
            "continent": null
        },
        {
            "geoid": 2110394,
            "asciiname": "Funafuti",
            "latitude": -8.52425,
            "longitude": 179.19417,
            "countryname": "Tuvalu",
            "continent": "OC"
        },
        {
            "geoid": 1668341,
            "asciiname": "Taipei",
            "latitude": 25.04776,
            "longitude": 121.53185,
            "countryname": "Taiwan",
            "continent": "AS"
        },
        {
            "geoid": 160196,
            "asciiname": "Dodoma",
            "latitude": -6.17221,
            "longitude": 35.73947,
            "countryname": "Tanzania",
            "continent": "AF"
        },
        {
            "geoid": 703448,
            "asciiname": "Kyiv",
            "latitude": 50.45466,
            "longitude": 30.5238,
            "countryname": "Ukraine",
            "continent": "EU"
        },
        {
            "geoid": 232422,
            "asciiname": "Kampala",
            "latitude": 0.31628,
            "longitude": 32.58219,
            "countryname": "Uganda",
            "continent": "AF"
        },
        {
            "geoid": 4140963,
            "asciiname": "Washington",
            "latitude": 38.89511,
            "longitude": -77.03637,
            "countryname": "United States",
            "continent": null
        },
        {
            "geoid": 3441575,
            "asciiname": "Montevideo",
            "latitude": -34.90328,
            "longitude": -56.18816,
            "countryname": "Uruguay",
            "continent": "SA"
        },
        {
            "geoid": 1512569,
            "asciiname": "Tashkent",
            "latitude": 41.26465,
            "longitude": 69.21627,
            "countryname": "Uzbekistan",
            "continent": "AS"
        },
        {
            "geoid": 6691831,
            "asciiname": "Vatican City",
            "latitude": 41.90268,
            "longitude": 12.45414,
            "countryname": "Vatican",
            "continent": "EU"
        },
        {
            "geoid": 3577887,
            "asciiname": "Kingstown",
            "latitude": 13.15527,
            "longitude": -61.22742,
            "countryname": "Saint Vincent and the Grenadines",
            "continent": null
        },
        {
            "geoid": 3646738,
            "asciiname": "Caracas",
            "latitude": 10.48801,
            "longitude": -66.87919,
            "countryname": "Venezuela",
            "continent": "SA"
        },
        {
            "geoid": 3577430,
            "asciiname": "Road Town",
            "latitude": 18.42693,
            "longitude": -64.62079,
            "countryname": "British Virgin Islands",
            "continent": null
        },
        {
            "geoid": 4795467,
            "asciiname": "Charlotte Amalie",
            "latitude": 18.3419,
            "longitude": -64.9307,
            "countryname": "U.S. Virgin Islands",
            "continent": null
        },
        {
            "geoid": 1581130,
            "asciiname": "Hanoi",
            "latitude": 21.0245,
            "longitude": 105.84117,
            "countryname": "Vietnam",
            "continent": "AS"
        },
        {
            "geoid": 2135171,
            "asciiname": "Port-Vila",
            "latitude": -17.73648,
            "longitude": 168.31366,
            "countryname": "Vanuatu",
            "continent": "OC"
        },
        {
            "geoid": 4034821,
            "asciiname": "Mata-Utu",
            "latitude": -13.28163,
            "longitude": -176.17453,
            "countryname": "Wallis and Futuna",
            "continent": "OC"
        },
        {
            "geoid": 4035413,
            "asciiname": "Apia",
            "latitude": -13.83333,
            "longitude": -171.76666,
            "countryname": "Samoa",
            "continent": "OC"
        },
        {
            "geoid": 786714,
            "asciiname": "Pristina",
            "latitude": 42.67272,
            "longitude": 21.16688,
            "countryname": "Kosovo",
            "continent": "EU"
        },
        {
            "geoid": 71137,
            "asciiname": "Sanaa",
            "latitude": 15.35472,
            "longitude": 44.20667,
            "countryname": "Yemen",
            "continent": "AS"
        },
        {
            "geoid": 921815,
            "asciiname": "Mamoudzou",
            "latitude": -12.78234,
            "longitude": 45.22878,
            "countryname": "Mayotte",
            "continent": "AF"
        },
        {
            "geoid": 964137,
            "asciiname": "Pretoria",
            "latitude": -25.74486,
            "longitude": 28.18783,
            "countryname": "South Africa",
            "continent": "AF"
        },
        {
            "geoid": 909137,
            "asciiname": "Lusaka",
            "latitude": -15.40669,
            "longitude": 28.28713,
            "countryname": "Zambia",
            "continent": "AF"
        },
        {
            "geoid": 890299,
            "asciiname": "Harare",
            "latitude": -17.82772,
            "longitude": 31.05337,
            "countryname": "Zimbabwe",
            "continent": "AF"
        },
        {
            "geoid": 3352136,
            "asciiname": "Windhoek",
            "latitude": -22.55941,
            "longitude": 17.08323,
            "countryname": "Namibia",
            "continent": "AF"
        }
    ]
}
